[
  {
    "id": 1,
    "lat": 59.4093471455904,
    "lng": 18.3058984762798,
    "name": "Badställe på Kullö",
    "popupcontent": "Ett trevligt litet badställe på kullö",
    "icon": "/img/swim.webp",
    "score": 4
  },
  {
    "id": 2,
    "lat": 59.4191996650388,
    "lng": 18.2891863023062,
    "name": "Lillskär",
    "popupcontent": "En vacker liten ö med brygga och ett gammalt fort",
    "icon": "/img/boat.webp",
    "score": 5
  },
  {
    "id": 3,
    "lat": 59.4209804857603,
    "lng": 18.3012596742964,
    "name": "Fiske plats",
    "popupcontent": "Här kan man fiska strömming",
    "icon": "/img/boat.webp",
    "score": 4
  },
  {
    "id": 4,
    "lat": 59.4034897015817,
    "lng": 18.5757233366126,
    "name": "Ö utanför Grinda",
    "popupcontent": "En vacker ö utanför grinda",
    "icon": "/img/boat.webp",
    "score": null
  },
  {
    "id": 5,
    "lat": 59.4269167777501,
    "lng": 18.2969138246095,
    "name": "Fin utsiktsplats",
    "popupcontent": "En fin plats att titta ut över havet",
    "icon": null,
    "score": 3
  },
  {
    "id": 6,
    "lat": 59.3926497771969,
    "lng": 18.4396033879901,
    "name": "Syrran & jag",
    "popupcontent": "Här finns en trevligt restaurang med bra utsikt över oxdjupet",
    "icon": "/img/food.webp",
    "score": 4
  },
  {
    "id": 7,
    "lat": 59.4338916061229,
    "lng": 18.3097668126996,
    "name": "Badviken",
    "popupcontent": "Här kan man bada, grilla eller sätta kajak i havet",
    "icon": "/img/kayak.webp",
    "score": 4
  },
  {
    "id": 8,
    "lat": 59.3960678802149,
    "lng": 18.2674443529948,
    "name": "Rastplats",
    "popupcontent": "Rastplats brevid en sjö",
    "icon": "/img/nature.webp",
    "score": null
  },
  {
    "id": 9,
    "lat": 59.4037642834095,
    "lng": 18.2059281885167,
    "name": "Träsksjön",
    "popupcontent": "Sjö mitt i bogesund",
    "icon": "/img/nature.webp",
    "score": null
  },
  {
    "id": 10,
    "lat": 59.43381477175,
    "lng": 18.4268313411674,
    "name": "Kalvholmen",
    "popupcontent": "Fint ställe att lägga till med båt",
    "icon": "/img/boat.webp",
    "score": null
  },
  {
    "id": 11,
    "lat": 59.4417548661776,
    "lng": 18.3625809603384,
    "name": "Östra Trällhavsgrundet",
    "popupcontent": "Fin ö i mitten av trälhavet som nu är full av skarvar",
    "icon": null,
    "score": null
  },
  {
    "id": 12,
    "lat": 59.423217,
    "lng": 18.380073,
    "name": "Ekholmen",
    "popupcontent": "Ö med fin strand där man kanske kan lägga till med båt",
    "icon": "/img/boat.webp",
    "score": null
  },
  {
    "id": 13,
    "lat": 59.437691,
    "lng": 18.3550033,
    "name": "Moholmen",
    "popupcontent": "En fiskebåt som har sjunkit",
    "icon": null,
    "score": null
  },
  {
    "id": 14,
    "lat": 59.401872,
    "lng": 18.354892,
    "name": "Vaxholms Hamn",
    "popupcontent": "Hamn där man kan ta båtar ut i skärgården",
    "icon": null,
    "score": null
  },
  {
    "id": 15,
    "lat": 59.457919,
    "lng": 18.129785,
    "name": "Antennvägen",
    "popupcontent": "Parkering",
    "icon": "/img/parking.webp",
    "score": 4
  },
  {
    "id": 16,
    "lat": 59.464352,
    "lng": 18.115212,
    "name": "Skavlötens bunkrar",
    "popupcontent": "Gammal bunker",
    "icon": null,
    "score": null
  },
  {
    "id": 17,
    "lat": 59.398872,
    "lng": 18.193031,
    "name": "Stortallen",
    "popupcontent": "Stort träd",
    "icon": "/img/nature.webp",
    "score": null
  },
  {
    "id": 18,
    "lat": 59.443015,
    "lng": 18.098557,
    "name": "KFC",
    "popupcontent": "Friterad kyckling",
    "icon": "/img/food.webp",
    "score": 3
  },
  {
    "id": 19,
    "lat": 59.442825,
    "lng": 18.135339,
    "name": "Hägernäs brygga",
    "popupcontent": "Fin brygga ",
    "icon": null,
    "score": 3
  },
  {
    "id": 20,
    "lat": 59.387342,
    "lng": 18.290536,
    "name": "Bogesund brygga",
    "popupcontent": "Brygga",
    "icon": null,
    "score": null
  },
  {
    "id": 21,
    "lat": 59.438935,
    "lng": 18.309397,
    "name": "Resarö Brygga",
    "popupcontent": "Brygga",
    "icon": "/img/swim.webp",
    "score": null
  },
  {
    "id": 22,
    "lat": 59.439594,
    "lng": 18.150321,
    "name": "Alholmsudd",
    "popupcontent": "Fartyg som sjunkit",
    "icon": null,
    "score": null
  },
  {
    "id": 23,
    "lat": 59.4178138991173,
    "lng": 18.2879749613761,
    "name": "Storskär",
    "popupcontent": "Fin liten ö",
    "icon": "/img/boat.webp",
    "score": 4
  },
  {
    "id": 24,
    "lat": 59.392358128836,
    "lng": 18.3293397452635,
    "name": "Tenöbadet",
    "popupcontent": "tenöbadet på bogesund",
    "icon": "/img/swim.webp",
    "score": null
  },
  {
    "id": 25,
    "lat": 59.3974664998445,
    "lng": 18.0895934216492,
    "name": "Monrad's",
    "popupcontent": "Trevlig Resturang i Djursholm",
    "icon": "/img/food.webp",
    "score": 4
  },
  {
    "id": 26,
    "lat": 59.4033868874416,
    "lng": 18.3363251757591,
    "name": "Vaxholms Pizzeria",
    "popupcontent": "Trevlig liten pizzeria",
    "icon": "/img/food.webp",
    "score": 3
  },
  {
    "id": 27,
    "lat": 59.3301260670665,
    "lng": 18.0558057852315,
    "name": "Resturang Waterfront",
    "popupcontent": "Super god mat som buffe till lunch",
    "icon": "/img/food.webp",
    "score": 4
  },
  {
    "id": 28,
    "lat": 59.3292559942089,
    "lng": 18.0662232384207,
    "name": "Resturang Pickwick",
    "popupcontent": "Lunch resturang med bra mat och trevlig personal till bra pris.\nDagens lunch 149 SEK",
    "icon": "/img/food.webp",
    "score": 3
  },
  {
    "id": 29,
    "lat": 59.4044745672669,
    "lng": 18.3461380004883,
    "name": "Parkgrillen",
    "popupcontent": "Trevlig restaurang som säljer hamburgare",
    "icon": "/img/food.webp",
    "score": 3
  },
  {
    "id": 30,
    "lat": 59.144842283432,
    "lng": 17.7895528078079,
    "name": "Våffelstuga",
    "popupcontent": "Trevligt ställe där de säljer våfflor",
    "icon": "/img/food.webp",
    "score": 4
  },
  {
    "id": 31,
    "lat": 59.4564832672064,
    "lng": 18.1025987863541,
    "name": "Fin park",
    "popupcontent": "Fin park med dagvattenanläggning som lockar många djur. Många parkbänkar att sitta på runt vattnet",
    "icon": "/img/nature.webp",
    "score": 5
  },
  {
    "id": 32,
    "lat": 59.3933438312554,
    "lng": 18.2844740152359,
    "name": "Bogesunds slott",
    "popupcontent": "Slott som byggdes på 1600-talet av Per Brahe den yngre",
    "icon": "/img/historic.webp",
    "score": 5
  },
  {
    "id": 33,
    "lat": 59.39263788877613,
    "lng": 18.190054345663604,
    "name": "Grillplats",
    "popupcontent": "Grillplats på bogesund med fin utsikt",
    "icon": "/img/nature.webp",
    "score": 5
  },
  {
    "id": 34,
    "lat": 61.639558,
    "lng": 12.676254,
    "name": "Old Tjikko",
    "popupcontent": "Världens äldsta träd",
    "icon": "/img/nature.webp",
    "score": 5
  },
  {
    "id": 35,
    "lat": 59.397974,
    "lng": 18.321360,
    "name": "Pålsundsbatteriet",
    "popupcontent": "Pålsundsbatteriet med en vacker utsikt över Vaxholm och havet",
    "icon": "/img/historic.webp",
    "score": 4
  },
  {
    "id": 36,
    "lat": 59.410719,
    "lng": 18.301442,
    "name": "Badstrand på kullö",
    "popupcontent": "En fin liten badstrand med brygga",
    "icon": "/img/swim.webp",
    "score": 4
  },
  {
    "id": 37,
    "lat": 59.448328311464365,
    "lng": 18.197639531445535,
    "name": "Östra Ryds Kyrka",
    "popupcontent": "Parkering vid Östra Ryds kyrka",
    "icon": "/img/parking.webp",
    "score": 4
  },
  {
    "id": 38,
    "lat": 59.54105906791459,
    "lng": 18.169697920129813,
    "name": "Angarnssjöängens parkering",
    "popupcontent": "Parkering vid Angarnssjöängen",
    "icon": "/img/parking.webp",
    "score": 4
  },
  {
    "id": 39,
    "lat": 59.54691538993621,
    "lng": 18.161570667833374,
    "name": "Angarnssjöängen",
    "popupcontent": "Angarnssjöängens naturreservat",
    "icon": "/img/nature.webp",
    "score": 5
  }, 
   {
    "id": 40,
    "lat": 59.473111,
    "lng": 18.141154,
    "name": "Ullna badplats",
    "popupcontent": "Badplats vid ullnasjön",
    "icon": "/img/swim.webp",
    "score": 5
  }
]
